[{"name": "Northeast Dallas", "latitude": "32.854765", "longitude": "-96.713563", "scores": {"restaurant": {"label": "Restaurant", "name": "Pei Wei", "dist": 2.62, "rating": 3.6, "address": "9540 Garland Rd Suite 383 Building F, Dallas, TX 75218"}, "bar": {"label": "Bar", "name": "Go 4 It Sports Grill", "dist": 1.66, "rating": 4.4, "address": "10677 Northwest Hwy, Dallas, TX 75238"}, "transit_station": {"label": "Transit Station", "name": "Walnut Hill Station", "dist": 5.72, "rating": 0, "address": "Dallas, TX 75231"}, "park": {"label": "Park", "name": "Norbuck Park", "dist": 0.35, "rating": 4.3, "address": "200 N Buckner Blvd, Dallas, TX 75218"}, "supermarket": {"label": "Supermarket", "name": "Fiesta Mart", "dist": 2.97, "rating": 3.9, "address": "11445 Garland Rd, Dallas, TX 75218"}, "church": {"label": "Church", "name": "Lake Highlands Presbyterian Church", "dist": 1.14, "rating": 4.7, "address": "8525 Audelia Rd, Dallas, TX 75238"}, "mosque": {"label": "Mosque", "name": "IVY Masjid and Mosque", "dist": 4.59, "rating": 5, "address": "7225 Fair Oaks Ave, Dallas, TX 75231"}, "coffee_shop": {"label": "Coffee Shop", "name": "White Rock Coffee", "dist": 1.1, "rating": 4.7, "address": "10105 E NW Hwy, Dallas, TX 75238, USA"}, "gym": {"label": "Gym", "name": "Peak Zone Fitness", "dist": 1.48, "rating": 4.8, "address": "10531 Northwest Hwy, Dallas, TX 75238"}, "library": {"label": "Library", "name": "Lochwood Branch Library", "dist": 2.48, "rating": 4.9, "address": "11221 Lochwood Blvd, Dallas, TX 75218"}}}, {"name": "Far North", "latitude": "32.970441", "longitude": "-96.811547", "scores": {"restaurant": {"label": "Restaurant", "name": "In-N-Out Burger", "dist": 1.72, "rating": 4.4, "address": "15260 Dallas Pkwy, Dallas, TX 75248"}, "bar": {"label": "Bar", "name": "The Mucky Duck Bar", "dist": 1.46, "rating": 4.2, "address": "5064 Addison Cir, Addison, TX 75001"}, "transit_station": {"label": "Transit Station", "name": "Addison Transit Center", "dist": 2.02, "rating": 4, "address": "Addison, TX 75001"}, "park": {"label": "Park", "name": "Wagging Tail Dog Park", "dist": 0.32, "rating": 4.4, "address": "5841 Keller Springs Rd, Dallas, TX 75248"}, "supermarket": {"label": "Supermarket", "name": "Whole Foods Market", "dist": 2.26, "rating": 4.3, "address": "5100 Belt Line Rd Ste 1012, Addison, TX 75254"}, "church": {"label": "Church", "name": "All Saints Catholic Church", "dist": 1.98, "rating": 4.7, "address": "5231 Meadowcreek Dr, Dallas, TX 75248"}, "mosque": {"label": "Mosque", "name": "Carrollton Masjid", "dist": 6.27, "rating": 5, "address": "Carrollton, TX 75006"}, "coffee_shop": {"label": "Coffee Shop", "name": "Starbucks", "dist": 2.07, "rating": 4, "address": "14999 Preston Rd, Dallas, TX 75254, USA"}, "gym": {"label": "Gym", "name": "BODY DISTRICT", "dist": 1.41, "rating": 4.4, "address": "5080 Addison Cir, Addison, TX 75001"}, "library": {"label": "Library", "name": "Renner Frankford Branch Library", "dist": 3.41, "rating": 4.1, "address": "6400 Frankford Rd, Dallas, TX 75252"}}}, {"name": "Southeast Dallas", "latitude": "32.710997", "longitude": "-96.663243", "scores": {"restaurant": {"label": "Restaurant", "name": "Barbacoa Agave & Seafood Restaurant", "dist": 1.12, "rating": 4, "address": "7522, 9515 C F Hawn Fwy, Dallas, TX 75217"}, "bar": {"label": "Bar", "name": "Neon Cowboy", "dist": 2.19, "rating": 4, "address": "10420 C F Hawn Fwy, Dallas, TX 75217"}, "transit_station": {"label": "Transit Station", "name": "Quail Drive at Glenshire Drive", "dist": 4.65, "rating": 0, "address": "Balch Springs, TX 75180"}, "park": {"label": "Park", "name": "Crawford Memorial Park", "dist": 1.19, "rating": 4.3, "address": "8700 Elam Rd, Dallas, TX 75217"}, "supermarket": {"label": "Supermarket", "name": "Elrod's Cost Plus Supermarket", "dist": 3.21, "rating": 4, "address": "1314 S Buckner Blvd, Dallas, TX 75217"}, "church": {"label": "Church", "name": "Antioch Baptist Church", "dist": 1.56, "rating": 3.8, "address": "8216 C F Hawn Fwy, Dallas, TX 75217"}, "mosque": {"label": "Mosque", "name": "Islamic Association Of Mesquite", "dist": 9.95, "rating": 4.7, "address": "2409 Gus Thomasson Rd, Mesquite, TX 75150"}, "coffee_shop": {"label": "Coffee Shop", "name": "Starbucks", "dist": 8.23, "rating": 4.2, "address": "1501 Pioneer Rd, Mesquite, TX 75149, USA"}, "gym": {"label": "Gym", "name": "Young Guns Boxing Club", "dist": 1.58, "rating": 4.8, "address": "8204 C F Hawn Fwy, Dallas, TX 75217"}, "library": {"label": "Library", "name": "Prairie Creek Branch Library", "dist": 2.69, "rating": 4.6, "address": "9606 Lake June Rd, Dallas, TX 75217"}}}, {"name": "Southwest Dallas", "latitude": "32.68438", "longitude": "-96.911452", "scores": {"restaurant": {"label": "Restaurant", "name": "Whataburger", "dist": 2.44, "rating": 3.8, "address": "311 W E Camp Wisdom Rd, Duncanville, TX 75116"}, "bar": {"label": "Bar", "name": "BOOM BOOM lounge", "dist": 3.36, "rating": 4.5, "address": "4222 W Camp Wisdom Rd, Dallas, TX 75237"}, "transit_station": {"label": "Transit Station", "name": "Westmoreland Station", "dist": 5.39, "rating": 4.1, "address": "2646 S. Westmoreland Road, Dallas, TX 75211"}, "park": {"label": "Park", "name": "Red Bird Park", "dist": 1.04, "rating": 4.5, "address": "401 W Red Bird Ln, Duncanville, TX 75116"}, "supermarket": {"label": "Supermarket", "name": "ALDI", "dist": 4.26, "rating": 4.5, "address": "333 S Cedar Ridge Dr, Duncanville, TX 75116"}, "church": {"label": "Church", "name": "Jubilee United Methodist Church", "dist": 1.82, "rating": 4.7, "address": "301 Frank Keasler Blvd, Duncanville, TX 75116"}, "mosque": {"label": "Mosque", "name": "Duncanville Islamic Center", "dist": 5.66, "rating": 4.6, "address": "1419 Acton Ave, Duncanville, TX 75137"}, "coffee_shop": {"label": "Coffee Shop", "name": "Judy's Cafe", "dist": 2.57, "rating": 4.4, "address": "126 W Camp Wisdom Rd, Duncanville, TX 75116, USA"}, "gym": {"label": "Gym", "name": "Real Steel Gym", "dist": 1.38, "rating": 4.4, "address": "4570 Brass Way, Dallas, TX 75236"}, "library": {"label": "Library", "name": "Duncanville Public Library", "dist": 3.94, "rating": 4.5, "address": "201 James Collins Blvd, Duncanville, TX 75116"}}}, {"name": "Preston Hollow", "latitude": "32.891162", "longitude": "-96.870182", "scores": {"restaurant": {"label": "Restaurant", "name": "Golden Corral Buffet & Grill", "dist": 1.99, "rating": 3.7, "address": "3312 Forest Ln, Dallas, TX 75234"}, "bar": {"label": "Bar", "name": "Sports City Cantina Dallas, TX - Best Sports Bar Restaurant Grill DFW", "dist": 2.14, "rating": 3.9, "address": "10851 Harry Hines Blvd, Dallas, TX 75220"}, "transit_station": {"label": "Transit Station", "name": "Josey @ Lineville - S - NS", "dist": 3.45, "rating": 0, "address": "Farmers Branch, TX 75234"}, "park": {"label": "Park", "name": "Royal Park", "dist": 0.93, "rating": 4, "address": "3461 Royal Ln, Dallas, TX 75229"}, "supermarket": {"label": "Supermarket", "name": "ALDI", "dist": 1.94, "rating": 4.4, "address": "3128 Forest Ln #245, Dallas, TX 75234"}, "church": {"label": "Church", "name": "Walnut Hill Church of Christ", "dist": 1.4, "rating": 4.7, "address": "10550 Marsh Ln, Dallas, TX 75229"}, "mosque": {"label": "Mosque", "name": "Al Razzaq Islamic Centre", "dist": 1.97, "rating": 4.6, "address": "11132 Shady Trail, Dallas, TX 75229"}, "coffee_shop": {"label": "Coffee Shop", "name": "Starbucks", "dist": 2.02, "rating": 4, "address": "3100 Forest Ln, Dallas, TX 75234, USA"}, "gym": {"label": "Gym", "name": "Planet Fitness", "dist": 1.62, "rating": 4.2, "address": "10031 Marsh Ln Ste 131, Dallas, TX 75229"}, "library": {"label": "Library", "name": "Park Forest Branch Library", "dist": 2.19, "rating": 3.6, "address": "3421 Forest Ln, Dallas, TX 75234"}}}, {"name": "Cedar Crest", "latitude": "32.722758", "longitude": "-96.780879", "scores": {"restaurant": {"label": "Restaurant", "name": "Restaurant La Sabrosita", "dist": 2.15, "rating": 4.1, "address": "Dallas, TX 75203"}, "bar": {"label": "Bar", "name": "LC Lounge", "dist": 4.83, "rating": 4.3, "address": "305 Centre St, Dallas, TX 75208"}, "transit_station": {"label": "Transit Station", "name": "VA Hospital", "dist": 3.37, "rating": 4, "address": "Dallas, TX 75216"}, "park": {"label": "Park", "name": "Deerpath Park.", "dist": 1.67, "rating": 4.1, "address": "1800 E Kiest Blvd, Dallas, TX 75216"}, "supermarket": {"label": "Supermarket", "name": "Save A Lot", "dist": 2.37, "rating": 4.1, "address": "2611 S Lancaster Rd, Dallas, TX 75216"}, "church": {"label": "Church", "name": "City Temple Seventh-Day Adventist Church", "dist": 1.26, "rating": 4.9, "address": "1530 Bonnie View Rd, Dallas, TX 75224"}, "mosque": {"label": "Mosque", "name": "Masjid Al Quran", "dist": 1.65, "rating": 4.7, "address": "2420 Cedar Crest Blvd, Dallas, TX 75203"}, "coffee_shop": {"label": "Coffee Shop", "name": "Cultivar Coffee Bar & Roaster", "dist": 4.88, "rating": 4.5, "address": "313 W Jefferson Blvd, Dallas, TX 75208, USA"}, "gym": {"label": "Gym", "name": "Home Of Champions Boxing center", "dist": 1.22, "rating": 5, "address": "Dallas, TX 75216"}, "library": {"label": "Library", "name": "Paul Laurence Dunbar Lancaster-Kiest Branch Library", "dist": 1.25, "rating": 4.3, "address": "2008 E Kiest Blvd, Dallas, TX 75216"}}}, {"name": "Oak Cliff", "latitude": "32.729599", "longitude": "-96.892456", "scores": {"restaurant": {"label": "Restaurant", "name": "Sonic Drive-In", "dist": 1.56, "rating": 3.9, "address": "3710 W Illinois Ave, Dallas, TX 75211"}, "bar": {"label": "Bar", "name": "Club Rio Dallas", "dist": 1.18, "rating": 4, "address": "4444 W Illinois Ave, Dallas, TX 75211"}, "transit_station": {"label": "Transit Station", "name": "Westmoreland Station", "dist": 2.2, "rating": 4.1, "address": "2646 S. Westmoreland Road, Dallas, TX 75211"}, "park": {"label": "Park", "name": "Martin Weiss Park", "dist": 1.48, "rating": 4.2, "address": "3400 W Clarendon Dr, Dallas, TX 75211"}, "supermarket": {"label": "Supermarket", "name": "Savers Cost Plus", "dist": 1.83, "rating": 4, "address": "1610 S Westmoreland Rd, Dallas, TX 75211"}, "church": {"label": "Church", "name": "Cockrell Hill Baptist Church", "dist": 0.48, "rating": 5, "address": "1128 S Cockrell Hill Rd, Dallas, TX 75211"}, "mosque": {"label": "Mosque", "name": "\u041c\u0430\u0441\u0434\u0436\u0438\u0434 \u0410\u043b-\u0425\u0430\u043a", "dist": 7.36, "rating": 0, "address": "2723 Alaska Ave, Dallas, TX 75216"}, "coffee_shop": {"label": "Coffee Shop", "name": "Starbucks", "dist": 3.51, "rating": 3.5, "address": "315 S Hampton Rd, Dallas, TX 75208, USA"}, "gym": {"label": "Gym", "name": "Moya Wrestling & Brazilian Jiu-Jitsu", "dist": 0.76, "rating": 5, "address": "2112 S Cockrell Hill Rd suite a, Dallas, TX 75211"}, "library": {"label": "Library", "name": "Cockrell Hill Public Library", "dist": 0.74, "rating": 3.5, "address": "4125 W Clarendon Dr, Dallas, TX 75211"}}}, {"name": "Lake Highlands", "latitude": "32.894166", "longitude": "-96.752578", "scores": {"restaurant": {"label": "Restaurant", "name": "Cindi\u2019s NY Deli & Restaurant", "dist": 1.77, "rating": 4.5, "address": "11111 N Central Expy, Dallas, TX 75243"}, "bar": {"label": "Bar", "name": "O'Riley's", "dist": 1.78, "rating": 4.3, "address": "8989 Forest Lane, Dallas, TX 75243"}, "transit_station": {"label": "Transit Station", "name": "Walnut Hill Station", "dist": 1.67, "rating": 0, "address": "Dallas, TX 75231"}, "park": {"label": "Park", "name": "Harry S Moss Park", "dist": 1.01, "rating": 4.3, "address": "7601 Greenville Ave, Dallas, TX 75231"}, "supermarket": {"label": "Supermarket", "name": "Trader Joe's", "dist": 2.38, "rating": 4.6, "address": "7939 Walnut Hill Ln, Dallas, TX 75230"}, "church": {"label": "Church", "name": "Dallas International Seventh-day Adventist Church", "dist": 1.83, "rating": 5, "address": "9150 Church Rd, Dallas, TX 75231"}, "mosque": {"label": "Mosque", "name": "IVY Masjid and Mosque", "dist": 2.25, "rating": 5, "address": "7225 Fair Oaks Ave, Dallas, TX 75231"}, "coffee_shop": {"label": "Coffee Shop", "name": "Starbucks", "dist": 1.24, "rating": 4.1, "address": "8520 Abrams Rd Ste 100, Dallas, TX 75243, USA"}, "gym": {"label": "Gym", "name": "24 Hour Fitness", "dist": 1.47, "rating": 3.6, "address": "11100 N Central Expy, Dallas, TX 75243"}, "library": {"label": "Library", "name": "Forest Green Branch Library", "dist": 1.74, "rating": 3.2, "address": "9015 Forest Ln, Dallas, TX 75243"}}}, {"name": "Oak Lawn", "latitude": "32.810175", "longitude": "-96.811567", "scores": {"restaurant": {"label": "Restaurant", "name": "The Landmark Restaurant", "dist": 0.24, "rating": 4.3, "address": "3015 Oak Lawn Ave, Dallas, TX 75219"}, "bar": {"label": "Bar", "name": "JR's Bar & Grill", "dist": 0.08, "rating": 3.4, "address": "3923 Cedar Springs Rd, Dallas, TX 75219"}, "transit_station": {"label": "Transit Station", "name": "Megabus.com", "dist": 3.35, "rating": 1.5, "address": "Dallas, TX 75201"}, "park": {"label": "Park", "name": "Turtle Creek Park", "dist": 0.79, "rating": 4.5, "address": "3333 Turtle Creek Blvd, Dallas, TX 75219"}, "supermarket": {"label": "Supermarket", "name": "Whole Foods Market", "dist": 1.18, "rating": 4.4, "address": "4100 Lomo Alto Dr, Highland Park, TX 75219"}, "church": {"label": "Church", "name": "Oak Lawn United Methodist Church", "dist": 0.31, "rating": 4.5, "address": "3014 Oak Lawn Ave, Dallas, TX 75219"}, "mosque": {"label": "Mosque", "name": "Dallas Masjid \u0645\u0633\u062c\u062f of al-Islam", "dist": 5.65, "rating": 4.5, "address": "2604 S Harwood St, Dallas, TX 75215"}, "coffee_shop": {"label": "Coffee Shop", "name": "Brewed+Pressed", "dist": 1.44, "rating": 4.1, "address": "3700 McKinney Ave #108, Dallas, TX 75204, USA"}, "gym": {"label": "Gym", "name": "TITLE Boxing Club Uptown", "dist": 0.61, "rating": 4.8, "address": "4140 Lemmon Ave #275, Dallas, TX 75219"}, "library": {"label": "Library", "name": "Oak Lawn Branch Library", "dist": 0.26, "rating": 4.2, "address": "4100 Cedar Springs Rd, Dallas, TX 75219"}}}, {"name": "North Dallas", "latitude": "32.888148", "longitude": "-96.791051", "scores": {"restaurant": {"label": "Restaurant", "name": "Cindi\u2019s NY Deli & Restaurant", "dist": 2.44, "rating": 4.5, "address": "11111 N Central Expy, Dallas, TX 75243"}, "bar": {"label": "Bar", "name": "Neighborhood Services Bar Room & Broiler", "dist": 1.35, "rating": 4.6, "address": "10720 Preston Rd, Dallas, TX 75230"}, "transit_station": {"label": "Transit Station", "name": "Walnut Hill Station", "dist": 2.53, "rating": 0, "address": "Dallas, TX 75231"}, "park": {"label": "Park", "name": "Preston Hollow Park", "dist": 1.72, "rating": 4.4, "address": "9000 Thackery St, Dallas, TX 75225"}, "supermarket": {"label": "Supermarket", "name": "Trader Joe's", "dist": 1.95, "rating": 4.6, "address": "7939 Walnut Hill Ln, Dallas, TX 75230"}, "church": {"label": "Church", "name": "Royal Lane Baptist Church", "dist": 0.83, "rating": 4.8, "address": "6707 Royal Ln, Dallas, TX 75230"}, "mosque": {"label": "Mosque", "name": "IVY Masjid and Mosque", "dist": 3.55, "rating": 5, "address": "7225 Fair Oaks Ave, Dallas, TX 75231"}, "coffee_shop": {"label": "Coffee Shop", "name": "Starbucks", "dist": 1.47, "rating": 4.3, "address": "102 Preston Royal Shopping Ctr, Dallas, TX 75230, United States"}, "gym": {"label": "Gym", "name": "Orangetheory Fitness", "dist": 1.91, "rating": 4.6, "address": "7949 Walnut Hill Ln B20, Dallas, TX 75230"}, "library": {"label": "Library", "name": "Preston Royal Branch Library", "dist": 2.02, "rating": 3.9, "address": "5626 Royal Ln, Dallas, TX 75229"}}}, {"name": "Wolf Creek", "latitude": "32.661798", "longitude": "-96.853882", "scores": {"restaurant": {"label": "Restaurant", "name": "Raising Cane's Chicken Fingers", "dist": 1.55, "rating": 4.3, "address": "8150 S Hampton Rd, Dallas, TX 75232"}, "bar": {"label": "Bar", "name": "Chili's Grill & Bar", "dist": 1.6, "rating": 3.5, "address": "2503 W Wheatland Rd, Dallas, TX 75237"}, "transit_station": {"label": "Transit Station", "name": "Camp Wisdom Station", "dist": 6.19, "rating": 5, "address": "Dallas, TX 75241"}, "park": {"label": "Park", "name": "Twin Falls Park", "dist": 1.79, "rating": 4, "address": "6300 S Polk St, Dallas, TX 75232"}, "supermarket": {"label": "Supermarket", "name": "Cash Saver", "dist": 0.99, "rating": 3.8, "address": "1201 W Camp Wisdom Rd, Dallas, TX 75232"}, "church": {"label": "Church", "name": "Light of the World Church of Christ", "dist": 0.49, "rating": 4.7, "address": "7408 S Hampton Rd, Dallas, TX 75232"}, "mosque": {"label": "Mosque", "name": "Duncanville Islamic Center", "dist": 5.39, "rating": 4.6, "address": "1419 Acton Ave, Duncanville, TX 75137"}, "coffee_shop": {"label": "Coffee Shop", "name": "Starbucks", "dist": 2.32, "rating": 4.5, "address": "3620 W Camp Wisdom Rd, Dallas, TX 75237, USA"}, "gym": {"label": "Gym", "name": "Fitness Connection - Oak Cliff", "dist": 1.02, "rating": 3.3, "address": "2550 W Red Bird Ln, Dallas, TX 75237"}, "library": {"label": "Library", "name": "Polk-Wisdom Branch Library", "dist": 1.11, "rating": 4.7, "address": "7151 Library Ln, Dallas, TX 75232"}}}, {"name": "M Streets", "latitude": "32.822061", "longitude": "-96.776961", "scores": {"restaurant": {"label": "Restaurant", "name": "Smithy on Henderson", "dist": 0.82, "rating": 4.6, "address": "2927 N Henderson Ave, Dallas, TX 75206"}, "bar": {"label": "Bar", "name": "Tei Tei Robata Bar", "dist": 0.74, "rating": 4.6, "address": "2906 N Henderson Ave, Dallas, TX 75206"}, "transit_station": {"label": "Transit Station", "name": "Mockingbird Station", "dist": 1.7, "rating": 5, "address": "Dallas, TX 75206"}, "park": {"label": "Park", "name": "Glencoe Park", "dist": 1.17, "rating": 4.4, "address": "3700 Glencoe St, Dallas, TX 75206"}, "supermarket": {"label": "Supermarket", "name": "Sam's Club Now", "dist": 0.93, "rating": 4.8, "address": "Dallas, TX 75206"}, "church": {"label": "Church", "name": "The Church of Jesus Christ of Latter-day Saints", "dist": 1.53, "rating": 4.7, "address": "1800 Bennett Ave, Dallas, TX 75206"}, "mosque": {"label": "Mosque", "name": "Islamic Center of South Dallas", "dist": 5.93, "rating": 4.3, "address": "2806 Martin Luther King Jr Blvd, Dallas, TX 75215"}, "coffee_shop": {"label": "Coffee Shop", "name": "Mudsmith", "dist": 0.99, "rating": 4.4, "address": "2114 Greenville Ave, Dallas, TX 75206, USA"}, "gym": {"label": "Gym", "name": "The Gym of Social Mechanics", "dist": 1.08, "rating": 5, "address": "2010 Greenville Ave, Dallas, TX 75206"}, "library": {"label": "Library", "name": "HIGHLAND PARK HARVEY R. \"BUM\" BRIGHT LIBRARY", "dist": 1.95, "rating": 3.6, "address": "4700 Drexel Dr, Dallas, TX 75205"}}}, {"name": "Winnetka Heights", "latitude": "32.75213", "longitude": "-96.83217", "scores": {"restaurant": {"label": "Restaurant", "name": "Lockhart Smokehouse BBQ", "dist": 0.46, "rating": 4.4, "address": "400 W Davis St, Dallas, TX 75208"}, "bar": {"label": "Bar", "name": "303 Bar and Grill", "dist": 0.57, "rating": 4.2, "address": "303 W Davis St, Dallas, TX 75208"}, "transit_station": {"label": "Transit Station", "name": "Union Station", "dist": 3.52, "rating": 5, "address": "Dallas, TX 75202"}, "park": {"label": "Park", "name": "Kidd Springs Park", "dist": 0.22, "rating": 4.5, "address": "1003 Cedar Hill Ave, Dallas, TX 75208"}, "supermarket": {"label": "Supermarket", "name": "Fiesta Mart", "dist": 0.88, "rating": 4, "address": "611 W Jefferson Blvd, Dallas, TX 75208"}, "church": {"label": "Church", "name": "Christ Episcopal Church", "dist": 0.81, "rating": 4.7, "address": "534 W 10th St, Dallas, TX 75208"}, "mosque": {"label": "Mosque", "name": "Masjid Al Quran", "dist": 4.25, "rating": 4.7, "address": "2420 Cedar Crest Blvd, Dallas, TX 75203"}, "coffee_shop": {"label": "Coffee Shop", "name": "Davis Street Espresso", "dist": 0.51, "rating": 4.6, "address": "819 W Davis St, Dallas, TX 75208, USA"}, "gym": {"label": "Gym", "name": "Anytime Fitness", "dist": 0.44, "rating": 4.6, "address": "611 N Bishop Ave, Dallas, TX 75208"}, "library": {"label": "Library", "name": "North Oak Cliff Branch Library", "dist": 0.94, "rating": 4.1, "address": "302 W 10th St, Dallas, TX 75208"}}}, {"name": "South Dallas", "latitude": "32.663019", "longitude": "-96.763573", "scores": {"restaurant": {"label": "Restaurant", "name": "Truck Stop Mexican Food", "dist": 1.41, "rating": 4.2, "address": "4411 Cedardale Dr, Hutchins, TX 75141"}, "bar": {"label": "Bar", "name": "Lil Cajun Grll & Sports", "dist": 4.26, "rating": 4.2, "address": "5215 Singing Hills Dr, Dallas, TX 75216"}, "transit_station": {"label": "Transit Station", "name": "Camp Wisdom Station", "dist": 2.35, "rating": 5, "address": "Dallas, TX 75241"}, "park": {"label": "Park", "name": "Highland Hills Park", "dist": 0.94, "rating": 3.8, "address": "Dallas, TX 75241"}, "supermarket": {"label": "Supermarket", "name": "Family Dollar", "dist": 0.94, "rating": 3.1, "address": "6171 Bonnie View Rd, Dallas, TX 75241"}, "church": {"label": "Church", "name": "Church of the Living God", "dist": 0.57, "rating": 4, "address": "6540 Sebring Dr, Dallas, TX 75241"}, "mosque": {"label": "Mosque", "name": "\u041c\u0430\u0441\u0434\u0436\u0438\u0434 \u0410\u043b-\u0425\u0430\u043a", "dist": 7.51, "rating": 0, "address": "2723 Alaska Ave, Dallas, TX 75216"}, "coffee_shop": {"label": "Coffee Shop", "name": "Starbucks", "dist": 8.67, "rating": 4, "address": "851 N, I-35E, DeSoto, TX 75115, United States"}, "gym": {"label": "Gym", "name": "Moorland Family YMCA", "dist": 5.11, "rating": 4.6, "address": "907 E Ledbetter Dr, Dallas, TX 75216"}, "library": {"label": "Library", "name": "Highland Hills Branch Library", "dist": 0.89, "rating": 3.4, "address": "6200 Bonnie View Rd, Dallas, TX 75241"}}}, {"name": "Eagle Ford", "latitude": "32.780813", "longitude": "-96.872542", "scores": {"restaurant": {"label": "Restaurant", "name": "Olive Garden Italian Restaurant", "dist": 1.59, "rating": 4.2, "address": "3351 Canyon Bluff, Dallas, TX 75211"}, "bar": {"label": "Bar", "name": "Chili's Grill & Bar", "dist": 2.71, "rating": 4, "address": "1610 N Cockrell Hill Rd, Dallas, TX 75211"}, "transit_station": {"label": "Transit Station", "name": "Medical/Market Ctr Station", "dist": 4.39, "rating": 0, "address": "Dallas, TX 75207"}, "park": {"label": "Park", "name": "Fish Trap Lake Park", "dist": 0.97, "rating": 3.9, "address": "Dallas, TX 75212"}, "supermarket": {"label": "Supermarket", "name": "ALDI", "dist": 2.52, "rating": 4.3, "address": "2505 Fort Worth Ave, Dallas, TX 75211"}, "church": {"label": "Church", "name": "Penuel Seventh-day Adventist Church", "dist": 0.75, "rating": 5, "address": "3339 Bernal Dr, Dallas, TX 75212"}, "mosque": {"label": "Mosque", "name": "Saifee Masjid", "dist": 6.11, "rating": 4.6, "address": "1320 S Nursery Rd, Irving, TX 75060"}, "coffee_shop": {"label": "Coffee Shop", "name": "Starbucks", "dist": 2.83, "rating": 4, "address": "1601 N Cockrell Hill Rd, Dallas, TX 75211, USA"}, "gym": {"label": "Gym", "name": "Jay Rock's Gym", "dist": 3.15, "rating": 5, "address": "1100 Conveyor Ln, Dallas, TX 75247"}, "library": {"label": "Library", "name": "Dallas West Branch Library", "dist": 1.2, "rating": 4.7, "address": "2332 Singleton Blvd, Dallas, TX 75212"}}}, {"name": "South Boulevard-Park Row Historic", "latitude": "32.744677", "longitude": "-96.744947", "scores": {"restaurant": {"label": "Restaurant", "name": "Delicious Restaurant", "dist": 1.44, "rating": 4.3, "address": "5209 S Lamar St, Dallas, TX 75215"}, "bar": {"label": "Bar", "name": "Cha Cha Restaurant Bar", "dist": 4.44, "rating": 3.6, "address": "4916 Military Pkwy, Dallas, TX 75227"}, "transit_station": {"label": "Transit Station", "name": "Megabus.com", "dist": 6.31, "rating": 1.5, "address": "Dallas, TX 75201"}, "park": {"label": "Park", "name": "William Blair Jr. Park", "dist": 0.47, "rating": 4.3, "address": "3000 Rochester St, Dallas, TX 75215"}, "supermarket": {"label": "Supermarket", "name": "Big Daddy's Supermarket & Food", "dist": 0.88, "rating": 4, "address": "6204 Bexar St, Dallas, TX 75215"}, "church": {"label": "Church", "name": "Lawrence and Marder Church of Christ", "dist": 1.32, "rating": 4.5, "address": "2600 Lawrence St, Dallas, TX 75215"}, "mosque": {"label": "Mosque", "name": "Islamic Center of South Dallas", "dist": 3.47, "rating": 4.3, "address": "2806 Martin Luther King Jr Blvd, Dallas, TX 75215"}, "coffee_shop": {"label": "Coffee Shop", "name": "Mokah Coffee & Tea", "dist": 5.39, "rating": 4.5, "address": "2803 Taylor St, Dallas, TX 75226, USA"}, "gym": {"label": "Gym", "name": "Ring of Hope Boxing", "dist": 2.04, "rating": 5, "address": "4519 S 2nd Ave, Dallas, TX 75210"}, "library": {"label": "Library", "name": "Martin Luther King Branch Library", "dist": 3.48, "rating": 4.8, "address": "2922 Martin Luther King Jr Blvd, Dallas, TX 75215"}}}, {"name": "Bluffview", "latitude": "32.8451", "longitude": "-96.834386", "scores": {"restaurant": {"label": "Restaurant", "name": "Celebration", "dist": 0.73, "rating": 4.6, "address": "4503 W Lovers Ln, Dallas, TX 75209"}, "bar": {"label": "Bar", "name": "CR\u00da", "dist": 1.44, "rating": 4.3, "address": "8008 Herb Kelleher Way, Dallas, TX 75235"}, "transit_station": {"label": "Transit Station", "name": "Medical/Market Ctr Station", "dist": 4.02, "rating": 0, "address": "Dallas, TX 75207"}, "park": {"label": "Park", "name": "Flippen Park", "dist": 2.63, "rating": 4.6, "address": "Dallas, TX 75205"}, "supermarket": {"label": "Supermarket", "name": "Trader Joe's", "dist": 1.63, "rating": 4.7, "address": "5550 W Lovers Ln Ste 168, Dallas, TX 75209"}, "church": {"label": "Church", "name": "Cathedral of Hope", "dist": 1.84, "rating": 4.4, "address": "5910 Cedar Springs Rd, Dallas, TX 75235"}, "mosque": {"label": "Mosque", "name": "Al Razzaq Islamic Centre", "dist": 6.89, "rating": 4.6, "address": "11132 Shady Trail, Dallas, TX 75229"}, "coffee_shop": {"label": "Coffee Shop", "name": "Starbucks", "dist": 1.13, "rating": 4.1, "address": "7117 Inwood Rd, Dallas, TX 75209, USA"}, "gym": {"label": "Gym", "name": "LA Fitness", "dist": 1.13, "rating": 3.6, "address": "4540 W Mockingbird Ln, Dallas, TX 75209"}, "library": {"label": "Library", "name": "Grauwyler Park Branch Library", "dist": 2.57, "rating": 4.4, "address": "2146 Gilford St, Dallas, TX 75235"}}}, {"name": "Near East", "latitude": "32.789529", "longitude": "-96.828997", "scores": {"restaurant": {"label": "Restaurant", "name": "Amberjax Fish Market Grille", "dist": 1.12, "rating": 4.4, "address": "3011 Gulden Ln #107, Dallas, TX 75212"}, "bar": {"label": "Bar", "name": "Pie Tap Pizza Workshop + Bar", "dist": 0.7, "rating": 4.6, "address": "1212 Oak Lawn Ave #131, Dallas, TX 75207"}, "transit_station": {"label": "Transit Station", "name": "Union Station", "dist": 2.5, "rating": 5, "address": "Dallas, TX 75202"}, "park": {"label": "Park", "name": "Trammell Crow Park", "dist": 0.51, "rating": 4.4, "address": "3700 Sylvan Ave, Dallas, TX 75207"}, "supermarket": {"label": "Supermarket", "name": "Garage", "dist": 2.52, "rating": 4.7, "address": "1200 Ross Ave, Dallas, TX 75202"}, "church": {"label": "Church", "name": "Dallas West Church of Christ", "dist": 2.6, "rating": 4.6, "address": "3510 N Hampton Rd, Dallas, TX 75212"}, "mosque": {"label": "Mosque", "name": "Dallas Masjid \u0645\u0633\u062c\u062f of al-Islam", "dist": 5.29, "rating": 4.5, "address": "2604 S Harwood St, Dallas, TX 75215"}, "coffee_shop": {"label": "Coffee Shop", "name": "Ascension Coffee", "dist": 1.19, "rating": 4.5, "address": "1621 Oak Lawn Ave, Dallas, TX 75207, USA"}, "gym": {"label": "Gym", "name": "H.I.I.T. Fit", "dist": 0.48, "rating": 5, "address": "167 Turtle Creek Blvd #102, Dallas, TX 75207"}, "library": {"label": "Library", "name": "El Centro College Library", "dist": 2.47, "rating": 4.4, "address": "801 Main St, Dallas, TX 75202"}}}, {"name": "Love Field Area", "latitude": "32.838115", "longitude": "-96.853675", "scores": {"restaurant": {"label": "Restaurant", "name": "Dickeys Barbecue Pit", "dist": 0.94, "rating": 3.3, "address": "Dallas Love Field Airport, Dallas, TX 75235"}, "bar": {"label": "Bar", "name": "CR\u00da", "dist": 0.85, "rating": 4.3, "address": "8008 Herb Kelleher Way, Dallas, TX 75235"}, "transit_station": {"label": "Transit Station", "name": "Southwestern Medical @ Inwood - S- MB", "dist": 2.51, "rating": 0, "address": "Dallas, TX 75235"}, "park": {"label": "Park", "name": "Grauwyler Park", "dist": 0.8, "rating": 4.3, "address": "Dallas, TX 75235"}, "supermarket": {"label": "Supermarket", "name": "Walmart", "dist": 2.53, "rating": 3.9, "address": "2352-2354 W Northwest Hwy, Dallas, TX 75220"}, "church": {"label": "Church", "name": "Cathedral of Hope", "dist": 2.27, "rating": 4.4, "address": "5910 Cedar Springs Rd, Dallas, TX 75235"}, "mosque": {"label": "Mosque", "name": "Al Razzaq Islamic Centre", "dist": 6.28, "rating": 4.6, "address": "11132 Shady Trail, Dallas, TX 75229"}, "coffee_shop": {"label": "Coffee Shop", "name": "Cavallini Coffee A Brand of Coffee by Globex America", "dist": 1.6, "rating": 5, "address": "2324 Shorecrest Dr, Dallas, TX 75235, USA"}, "gym": {"label": "Gym", "name": "NXT Rep Fitness", "dist": 1.45, "rating": 4.6, "address": "2600 W Mockingbird Ln, Dallas, TX 75235"}, "library": {"label": "Library", "name": "Grauwyler Park Branch Library", "dist": 0.65, "rating": 4.4, "address": "2146 Gilford St, Dallas, TX 75235"}}}, {"name": "Buckner Terrace", "latitude": "32.785816", "longitude": "-96.704502", "scores": {"restaurant": {"label": "Restaurant", "name": "Popeyes Louisiana Kitchen", "dist": 0.87, "rating": 3.4, "address": "8120 E R L Thornton Fwy, Dallas, TX 75228"}, "bar": {"label": "Bar", "name": "BoomerJack's Grill & Bar", "dist": 0.95, "rating": 4.1, "address": "6155 Samuell Blvd, Dallas, TX 75228"}, "transit_station": {"label": "Transit Station", "name": "Spring @ Lyons - E - NS", "dist": 3.61, "rating": 0, "address": "Dallas, TX 75210"}, "park": {"label": "Park", "name": "Everglade Park", "dist": 0.53, "rating": 4.3, "address": "Dallas, TX 75227"}, "supermarket": {"label": "Supermarket", "name": "Fiesta Mart", "dist": 3.27, "rating": 4, "address": "2951 S Buckner Blvd, Dallas, TX 75227"}, "church": {"label": "Church", "name": "Mountain View Church of Christ", "dist": 1.03, "rating": 4.9, "address": "7979 E R L Thornton Fwy, Dallas, TX 75228"}, "mosque": {"label": "Mosque", "name": "Islamic Center of South Dallas", "dist": 6.23, "rating": 4.3, "address": "2806 Martin Luther King Jr Blvd, Dallas, TX 75215"}, "coffee_shop": {"label": "Coffee Shop", "name": "Starbucks", "dist": 3.77, "rating": 4.2, "address": "7325 Gaston Ave Suite 100, Dallas, TX 75214, USA"}, "gym": {"label": "Gym", "name": "Dallas Midtown Boxing Gym And Fitnes", "dist": 1.66, "rating": 4.5, "address": "4431 Lawnview Ave, Dallas, TX 75227"}, "library": {"label": "Library", "name": "Skyline Branch Library", "dist": 0.47, "rating": 4, "address": "6006 Everglade Rd, Dallas, TX 75227"}}}, {"name": "Five Mile Creek", "latitude": "32.699472", "longitude": "-96.835223", "scores": {"restaurant": {"label": "Restaurant", "name": "A&W Restaurant", "dist": 0.42, "rating": 3.5, "address": "3606 S Polk St, Dallas, TX 75224"}, "bar": {"label": "Bar", "name": "Daqs N Raqs", "dist": 1.21, "rating": 4.3, "address": "4607 Village Fair Dr, Dallas, TX 75224"}, "transit_station": {"label": "Transit Station", "name": "VA Hospital", "dist": 4.0, "rating": 4, "address": "Dallas, TX 75216"}, "park": {"label": "Park", "name": "Beckley-Saner Park", "dist": 1.9, "rating": 4.2, "address": "114 W Hobson Ave, Dallas, TX 75201"}, "supermarket": {"label": "Supermarket", "name": "Save A Lot", "dist": 0.88, "rating": 3.9, "address": "1150 W Kiest Blvd Suite 201, Dallas, TX 75224"}, "church": {"label": "Church", "name": "Faith Temple Seventh-Day Adventist Church", "dist": 0.44, "rating": 4.5, "address": "825 W Pentagon Pkwy, Dallas, TX 75224"}, "mosque": {"label": "Mosque", "name": "Masjid Al Quran", "dist": 5.6, "rating": 4.7, "address": "2420 Cedar Crest Blvd, Dallas, TX 75203"}, "coffee_shop": {"label": "Coffee Shop", "name": "Peaberry Coffee", "dist": 2.27, "rating": 4.9, "address": "2446 W Kiest Blvd, Dallas, TX 75233, USA"}, "gym": {"label": "Gym", "name": "Curves", "dist": 1.02, "rating": 4, "address": "4515 Village Fair Dr, Dallas, TX 75224"}, "library": {"label": "Library", "name": "Christ for the Nations - Jack Moore Hall", "dist": 0.35, "rating": 5, "address": "504 Fawn Ridge Dr, Dallas, TX 75224"}}}, {"name": "Northwest Dallas", "latitude": "32.828691", "longitude": "-96.87479", "scores": {"restaurant": {"label": "Restaurant", "name": "Whataburger", "dist": 0.73, "rating": 4, "address": "8850 N Stemmons Fwy, Dallas, TX 75247"}, "bar": {"label": "Bar", "name": "Kay's Restaurant And Bar | American / Sushi / Sports Bar", "dist": 0.73, "rating": 4.2, "address": "8010 N Stemmons Fwy, Dallas, TX 75247"}, "transit_station": {"label": "Transit Station", "name": "Medical/Market Ctr Station", "dist": 3.93, "rating": 0, "address": "Dallas, TX 75207"}, "park": {"label": "Park", "name": "Grauwyler Park", "dist": 1.54, "rating": 4.3, "address": "Dallas, TX 75235"}, "supermarket": {"label": "Supermarket", "name": "Terry's Supermarket", "dist": 3.39, "rating": 4.2, "address": "3025 Webb Chapel Ext, Dallas, TX 75220"}, "church": {"label": "Church", "name": "Arlington Park First Baptist Church", "dist": 2.12, "rating": 5, "address": "5726 Van Winkle Blvd, Dallas, TX 75235"}, "mosque": {"label": "Mosque", "name": "MOMIN of Texas", "dist": 5.76, "rating": 4.8, "address": "1019 Perry St, Irving, TX 75060"}, "coffee_shop": {"label": "Coffee Shop", "name": "Starbucks", "dist": 1.21, "rating": 4.1, "address": "1111 W Mockingbird Ln, Dallas, TX 75247, USA"}, "gym": {"label": "Gym", "name": "NXT Rep Fitness", "dist": 2.98, "rating": 4.6, "address": "2600 W Mockingbird Ln, Dallas, TX 75235"}, "library": {"label": "Library", "name": "Grauwyler Park Branch Library", "dist": 1.64, "rating": 4.4, "address": "2146 Gilford St, Dallas, TX 75235"}}}, {"name": "Farmers Market District", "latitude": "32.77811", "longitude": "-96.789385", "scores": {"restaurant": {"label": "Restaurant", "name": "Easy Slider", "dist": 0.8, "rating": 4.6, "address": "2701 Main St, Dallas, TX 75226"}, "bar": {"label": "Bar", "name": "The Prophet Bar", "dist": 0.66, "rating": 4.1, "address": "2548 Elm St, Dallas, TX 75226"}, "transit_station": {"label": "Transit Station", "name": "Megabus.com", "dist": 0.77, "rating": 1.5, "address": "Dallas, TX 75201"}, "park": {"label": "Park", "name": "Main Street Garden Park", "dist": 0.61, "rating": 4.4, "address": "1902 Main St, Dallas, TX 75201"}, "supermarket": {"label": "Supermarket", "name": "Garage", "dist": 1.41, "rating": 4.7, "address": "1200 Ross Ave, Dallas, TX 75202"}, "church": {"label": "Church", "name": "First Presbyterian Church of Dallas", "dist": 0.44, "rating": 4.8, "address": "1835 Young St, Dallas, TX 75201"}, "mosque": {"label": "Mosque", "name": "Dallas Masjid \u0645\u0633\u062c\u062f of al-Islam", "dist": 1.54, "rating": 4.5, "address": "2604 S Harwood St, Dallas, TX 75215"}, "coffee_shop": {"label": "Coffee Shop", "name": "Stupid Good Coffee", "dist": 0.73, "rating": 4.7, "address": "1910 Pacific Ave #2060, Dallas, TX 75201, USA"}, "gym": {"label": "Gym", "name": "Trophy Fitness Downtown", "dist": 0.84, "rating": 4.7, "address": "1700 Pacific Ave #200, Dallas, TX 75201"}, "library": {"label": "Library", "name": "Dallas Public Library Parking Garage Entrance", "dist": 0.7, "rating": 4.8, "address": "1639-1541 Wood St, Dallas, TX 75201"}}}, {"name": "City Center District", "latitude": "32.786924", "longitude": "-96.79673", "scores": {"restaurant": {"label": "Restaurant", "name": "The Woolworth", "dist": 0.65, "rating": 4.6, "address": "1520 Elm St #201, Dallas, TX 75201"}, "bar": {"label": "Bar", "name": "Rattlesnake Bar", "dist": 0.91, "rating": 4.7, "address": "2121 McKinney Ave, Dallas, TX 75201"}, "transit_station": {"label": "Transit Station", "name": "Megabus.com", "dist": 0.44, "rating": 1.5, "address": "Dallas, TX 75201"}, "park": {"label": "Park", "name": "Klyde Warren Park", "dist": 0.53, "rating": 4.7, "address": "2012 Woodall Rodgers Fwy, Dallas, TX 75201"}, "supermarket": {"label": "Supermarket", "name": "Garage", "dist": 0.73, "rating": 4.7, "address": "1200 Ross Ave, Dallas, TX 75202"}, "church": {"label": "Church", "name": "First United Methodist Church", "dist": 0.24, "rating": 4.5, "address": "1928 Ross Ave, Dallas, TX 75201"}, "mosque": {"label": "Mosque", "name": "Dallas Masjid \u0645\u0633\u062c\u062f of al-Islam", "dist": 2.74, "rating": 4.5, "address": "2604 S Harwood St, Dallas, TX 75215"}, "coffee_shop": {"label": "Coffee Shop", "name": "Stupid Good Coffee", "dist": 0.52, "rating": 4.7, "address": "1910 Pacific Ave #2060, Dallas, TX 75201, USA"}, "gym": {"label": "Gym", "name": "24 Hour Fitness - Downtown Dallas Gym", "dist": 0.15, "rating": 3.3, "address": "700 N Harwood St, Dallas, TX 75201"}, "library": {"label": "Library", "name": "Truett Memorial Library", "dist": 0.37, "rating": 5, "address": "First Baptist Church Dallas, 1707 San Jacinto St, Dallas, TX 75201"}}}, {"name": "Dells District", "latitude": "32.739147", "longitude": "-96.876859", "scores": {"restaurant": {"label": "Restaurant", "name": "Jack in the Box", "dist": 0.56, "rating": 3.8, "address": "1020 S Westmoreland Rd, Dallas, TX 75211"}, "bar": {"label": "Bar", "name": "Applebee's Grill + Bar", "dist": 2.14, "rating": 4, "address": "3426 W Illinois Ave, Dallas, TX 75211"}, "transit_station": {"label": "Transit Station", "name": "Westmoreland Station", "dist": 2.2, "rating": 4.1, "address": "2646 S. Westmoreland Road, Dallas, TX 75211"}, "park": {"label": "Park", "name": "Martin Weiss Park", "dist": 0.63, "rating": 4.2, "address": "3400 W Clarendon Dr, Dallas, TX 75211"}, "supermarket": {"label": "Supermarket", "name": "Savers Cost Plus", "dist": 1.29, "rating": 4, "address": "1610 S Westmoreland Rd, Dallas, TX 75211"}, "church": {"label": "Church", "name": "Cockrell Hill United Methodist", "dist": 1.01, "rating": 4.3, "address": "4031 W Clarendon Dr, Dallas, TX 75211"}, "mosque": {"label": "Mosque", "name": "\u041c\u0430\u0441\u0434\u0436\u0438\u0434 \u0410\u043b-\u0425\u0430\u043a", "dist": 6.33, "rating": 0, "address": "2723 Alaska Ave, Dallas, TX 75216"}, "coffee_shop": {"label": "Coffee Shop", "name": "Starbucks", "dist": 1.79, "rating": 3.5, "address": "315 S Hampton Rd, Dallas, TX 75208, USA"}, "gym": {"label": "Gym", "name": "D& J Club Alejandro", "dist": 1.21, "rating": 4.8, "address": "3124 W Davis St, Dallas, TX 75211"}, "library": {"label": "Library", "name": "Cockrell Hill Public Library", "dist": 1.15, "rating": 3.5, "address": "4125 W Clarendon Dr, Dallas, TX 75211"}}}, {"name": "Main Street District", "latitude": "32.781205", "longitude": "-96.79589", "scores": {"restaurant": {"label": "Restaurant", "name": "The Woolworth", "dist": 0.25, "rating": 4.6, "address": "1520 Elm St #201, Dallas, TX 75201"}, "bar": {"label": "Bar", "name": "The Prophet Bar", "dist": 0.87, "rating": 4.1, "address": "2548 Elm St, Dallas, TX 75226"}, "transit_station": {"label": "Transit Station", "name": "Megabus.com", "dist": 0.39, "rating": 1.5, "address": "Dallas, TX 75201"}, "park": {"label": "Park", "name": "Main Street Garden Park", "dist": 0.1, "rating": 4.4, "address": "1902 Main St, Dallas, TX 75201"}, "supermarket": {"label": "Supermarket", "name": "Garage", "dist": 0.72, "rating": 4.7, "address": "1200 Ross Ave, Dallas, TX 75202"}, "church": {"label": "Church", "name": "First Presbyterian Church of Dallas", "dist": 0.29, "rating": 4.8, "address": "1835 Young St, Dallas, TX 75201"}, "mosque": {"label": "Mosque", "name": "Dallas Masjid \u0645\u0633\u062c\u062f of al-Islam", "dist": 2.21, "rating": 4.5, "address": "2604 S Harwood St, Dallas, TX 75215"}, "coffee_shop": {"label": "Coffee Shop", "name": "Stupid Good Coffee", "dist": 0.15, "rating": 4.7, "address": "1910 Pacific Ave #2060, Dallas, TX 75201, USA"}, "gym": {"label": "Gym", "name": "Trophy Fitness Downtown", "dist": 0.15, "rating": 4.7, "address": "1700 Pacific Ave #200, Dallas, TX 75201"}, "library": {"label": "Library", "name": "Dallas Public Library", "dist": 0.33, "rating": 5, "address": "1515 Young St, Dallas, TX 75201"}}}, {"name": "West End Historic District", "latitude": "32.78158", "longitude": "-96.807474", "scores": {"restaurant": {"label": "Restaurant", "name": "Ellen's", "dist": 0.03, "rating": 4.2, "address": "1790 N Record St, Dallas, TX 75202"}, "bar": {"label": "Bar", "name": "Saint Ann Restaurant & Bar", "dist": 1.11, "rating": 4.3, "address": "2550 Harry Hines Blvd, Dallas, TX 75201"}, "transit_station": {"label": "Transit Station", "name": "Union Station", "dist": 0.61, "rating": 5, "address": "Dallas, TX 75202"}, "park": {"label": "Park", "name": "Belo Garden", "dist": 0.53, "rating": 4.3, "address": "1014 Main St, Dallas, TX 75202"}, "supermarket": {"label": "Supermarket", "name": "Garage", "dist": 0.44, "rating": 4.7, "address": "1200 Ross Ave, Dallas, TX 75202"}, "church": {"label": "Church", "name": "First Baptist Dallas", "dist": 0.8, "rating": 4.3, "address": "1707 San Jacinto St, Dallas, TX 75201"}, "mosque": {"label": "Mosque", "name": "Dallas Masjid \u0645\u0633\u062c\u062f of al-Islam", "dist": 3.1, "rating": 4.5, "address": "2604 S Harwood St, Dallas, TX 75215"}, "coffee_shop": {"label": "Coffee Shop", "name": "Urban Coffee", "dist": 0.37, "rating": 4.4, "address": "901 Main St C117, Dallas, TX 75202, USA"}, "gym": {"label": "Gym", "name": "Fieldhouse Gym", "dist": 0.77, "rating": 4.8, "address": "1511 Elm St #100, Dallas, TX 75201"}, "library": {"label": "Library", "name": "El Centro College Library", "dist": 0.28, "rating": 4.4, "address": "801 Main St, Dallas, TX 75202"}}}, {"name": "Government District", "latitude": "32.777394", "longitude": "-96.800519", "scores": {"restaurant": {"label": "Restaurant", "name": "The Woolworth", "dist": 0.46, "rating": 4.6, "address": "1520 Elm St #201, Dallas, TX 75201"}, "bar": {"label": "Bar", "name": "Press Box Grill", "dist": 0.56, "rating": 4.2, "address": "1623 Main St Suite 101, Dallas, TX 75201"}, "transit_station": {"label": "Transit Station", "name": "Union Station", "dist": 0.68, "rating": 5, "address": "Dallas, TX 75202"}, "park": {"label": "Park", "name": "Belo Garden", "dist": 0.3, "rating": 4.3, "address": "1014 Main St, Dallas, TX 75202"}, "supermarket": {"label": "Supermarket", "name": "Garage", "dist": 0.69, "rating": 4.7, "address": "1200 Ross Ave, Dallas, TX 75202"}, "church": {"label": "Church", "name": "First Presbyterian Church of Dallas", "dist": 0.65, "rating": 4.8, "address": "1835 Young St, Dallas, TX 75201"}, "mosque": {"label": "Mosque", "name": "Dallas Masjid \u0645\u0633\u062c\u062f of al-Islam", "dist": 2.3, "rating": 4.5, "address": "2604 S Harwood St, Dallas, TX 75215"}, "coffee_shop": {"label": "Coffee Shop", "name": "Mc Clurge's Coffee Shop", "dist": 0.23, "rating": 4, "address": "1114 Commerce St, Dallas, TX 75242, USA"}, "gym": {"label": "Gym", "name": "F45 Training Dallas Main Street", "dist": 0.43, "rating": 5, "address": "1517 Main St, Dallas, TX 75201"}, "library": {"label": "Library", "name": "Dallas Public Library", "dist": 0.34, "rating": 5, "address": "1515 Young St, Dallas, TX 75201"}}}, {"name": "Reunion District", "latitude": "32.77393", "longitude": "-96.808429", "scores": {"restaurant": {"label": "Restaurant", "name": "Five Sixty by Wolfgang Puck", "dist": 0.22, "rating": 4.2, "address": "300 Reunion Blvd E, Dallas, TX 75207"}, "bar": {"label": "Bar", "name": "SODA Bar", "dist": 1.34, "rating": 4.2, "address": "1325 S Lamar St, Dallas, TX 75215"}, "transit_station": {"label": "Transit Station", "name": "Union Station", "dist": 0.25, "rating": 3.7, "address": "400 S Houston St, Dallas, TX 75202"}, "park": {"label": "Park", "name": "Reunion Arena Park", "dist": 0.0, "rating": 4.7, "address": "300 Reunion Blvd, Dallas, TX 75207"}, "supermarket": {"label": "Supermarket", "name": "Garage", "dist": 1.14, "rating": 4.7, "address": "1200 Ross Ave, Dallas, TX 75202"}, "church": {"label": "Church", "name": "First Baptist Dallas", "dist": 1.47, "rating": 4.3, "address": "1707 San Jacinto St, Dallas, TX 75201"}, "mosque": {"label": "Mosque", "name": "Dallas Masjid \u0645\u0633\u062c\u062f of al-Islam", "dist": 2.85, "rating": 4.5, "address": "2604 S Harwood St, Dallas, TX 75215"}, "coffee_shop": {"label": "Coffee Shop", "name": "Coffee's Post", "dist": 0.22, "rating": 4.3, "address": "Dallas, TX 75207, USA"}, "gym": {"label": "Gym", "name": "F45 Training Dallas Main Street", "dist": 1.19, "rating": 5, "address": "1517 Main St, Dallas, TX 75201"}, "library": {"label": "Library", "name": "Dallas County Law Library", "dist": 0.48, "rating": 5, "address": "600 Commerce St # 760, Dallas, TX 75202"}}}, {"name": "Arts District", "latitude": "32.789649", "longitude": "-96.79842", "scores": {"restaurant": {"label": "Restaurant", "name": "Fearing's Restaurant", "dist": 0.55, "rating": 4.6, "address": "2121 McKinney Ave, Dallas, TX 75201"}, "bar": {"label": "Bar", "name": "Rattlesnake Bar", "dist": 0.6, "rating": 4.7, "address": "2121 McKinney Ave, Dallas, TX 75201"}, "transit_station": {"label": "Transit Station", "name": "Megabus.com", "dist": 0.77, "rating": 1.5, "address": "Dallas, TX 75201"}, "park": {"label": "Park", "name": "Klyde Warren Park", "dist": 0.3, "rating": 4.7, "address": "2012 Woodall Rodgers Fwy, Dallas, TX 75201"}, "supermarket": {"label": "Supermarket", "name": "Whole Foods Market", "dist": 0.74, "rating": 4.4, "address": "2510 McKinney Ave, Dallas, TX 75201"}, "church": {"label": "Church", "name": "St. Paul United Methodist Church", "dist": 0.34, "rating": 4.5, "address": "1816 Routh St, Dallas, TX 75201"}, "mosque": {"label": "Mosque", "name": "Dallas Masjid \u0645\u0633\u062c\u062f of al-Islam", "dist": 3.07, "rating": 4.5, "address": "2604 S Harwood St, Dallas, TX 75215"}, "coffee_shop": {"label": "Coffee Shop", "name": "Allegro Coffee Company", "dist": 0.74, "rating": 4, "address": "2510 McKinney Ave, Dallas, TX 75201, USA"}, "gym": {"label": "Gym", "name": "24 Hour Fitness - Downtown Dallas Gym", "dist": 0.44, "rating": 3.3, "address": "700 N Harwood St, Dallas, TX 75201"}, "library": {"label": "Library", "name": "Mildred R & Frederick M Mayer Library", "dist": 0.32, "rating": 5, "address": "1717 N Harwood St, Dallas, TX 75201"}}}, {"name": "Lake Caroline", "latitude": "32.862271", "longitude": "-96.907774", "scores": {"restaurant": {"label": "Restaurant", "name": "Red Lobster", "dist": 1.05, "rating": 3.8, "address": "10290 Technology Blvd E, Dallas, TX 75220"}, "bar": {"label": "Bar", "name": "The Beauty Bar", "dist": 0.52, "rating": 4, "address": "2042 W Northwest Hwy, Dallas, TX 75220"}, "transit_station": {"label": "Transit Station", "name": "Irving Convention Center Station", "dist": 3.31, "rating": 3.8, "address": "Irving, TX 75039"}, "park": {"label": "Park", "name": "California Crossing Park", "dist": 1.58, "rating": 3.8, "address": "1633 California Crossing Rd, Dallas, TX 75220"}, "supermarket": {"label": "Supermarket", "name": "D ZEE Hotel Supplies Linens & Towels Factory", "dist": 1.23, "rating": 5, "address": "Technology Blvd E, Dallas, TX 75220"}, "church": {"label": "Church", "name": "Church of the Incarnation", "dist": 2.17, "rating": 4.4, "address": "1845 E Northgate Dr, Irving, TX 75062"}, "mosque": {"label": "Mosque", "name": "Al Razzaq Islamic Centre", "dist": 3.07, "rating": 4.6, "address": "11132 Shady Trail, Dallas, TX 75229"}, "coffee_shop": {"label": "Coffee Shop", "name": "Starbucks", "dist": 1.53, "rating": 4, "address": "2285 W Northwest Hwy, Dallas, TX 75220, USA"}, "gym": {"label": "Gym", "name": "Aiki Muay Thai Boxing Gym", "dist": 1.87, "rating": 4.9, "address": "10606 Shady Trail #115, Dallas, TX 75220"}, "library": {"label": "Library", "name": "Cowan-Blakley Memorial Library", "dist": 2.06, "rating": 5, "address": "1845 E Northgate Dr, Irving, TX 75062"}}}]